[
    {
      "rank": 1,
      "city": "Adana",
      "latitude": 37.0000,
      "longitude": 35.3213,
      "population": 2183167,
      "region": "Akdeniz"
    },
    {
      "rank": 2,
      "city": "Adıyaman",
      "latitude": 37.7648,
      "longitude": 38.2786,
      "population": 602774,
      "region": "Güneydoğu Anadolu"
    },
    {
      "rank": 3,
      "city": "Afyonkarahisar",
      "latitude": 38.7507,
      "longitude": 30.5567,
      "population": 709015,
      "region": "Ege"
    },
    {
      "rank": 4,
      "city": "Ağrı",
      "latitude": 39.7191,
      "longitude": 43.0503,
      "population": 547210,
      "region": "Doğu Anadolu"
    },
    {
      "rank": 5,
      "city": "Amasya",
      "latitude": 40.6499,
      "longitude": 35.8353,
      "population": 322167,
      "region": "Karadeniz"
    },
    {
      "rank": 6,
      "city": "Ankara",
      "latitude": 39.9208,
      "longitude": 32.8541,
      "population": 5270575,
      "region": "İç Anadolu"
    },
    {
      "rank": 7,
      "city": "Antalya",
      "latitude": 36.8841,
      "longitude": 30.7056,
      "population": 2288456,
      "region": "Akdeniz"
    },
    {
      "rank": 8,
      "city": "Artvin",
      "latitude": 41.1828,
      "longitude": 41.8183,
      "population": 168370,
      "region": "Karadeniz"
    },
    {
      "rank": 9,
      "city": "Aydın",
      "latitude": 37.8560,
      "longitude": 27.8416,
      "population": 1053506,
      "region": "Ege"
    },
    {
      "rank": 10,
      "city": "Balıkesir",
      "latitude": 39.6484,
      "longitude": 27.8826,
      "population": 1186688,
      "region": "Ege"
    },
    {
      "rank": 11,
      "city": "Bilecik",
      "latitude": 40.1535,
      "longitude": 29.9792,
      "population": 302694,
      "region": "Marmara"
    },
    {
      "rank": 12,
      "city": "Bingöl",
      "latitude": 38.8852,
      "longitude": 40.4987,
      "population": 199000,
      "region": "Doğu Anadolu"
    },
    {
      "rank": 13,
      "city": "Bitlis",
      "latitude": 38.3952,
      "longitude": 42.1240,
      "population": 239000,
      "region": "Doğu Anadolu"
    },
    {
      "rank": 14,
      "city": "Bolu",
      "latitude": 40.7356,
      "longitude": 31.6060,
      "population": 311000,
      "region": "Marmara"
    },
    {
      "rank": 15,
      "city": "Burdur",
      "latitude": 37.7213,
      "longitude": 30.2903,
      "population": 311000,
      "region": "Akdeniz"
    },
    {
      "rank": 16,
      "city": "Bursa",
      "latitude": 40.1824,
      "longitude": 29.0711,
      "population": 2660000,
      "region": "Marmara"
    },
    {
      "rank": 17,
      "city": "Çanakkale",
      "latitude": 40.1566,
      "longitude": 26.4142,
      "population": 311000,
      "region": "Marmara"
    },
    {
      "rank": 18,
      "city": "Çankırı",
      "latitude": 40.6017,
      "longitude": 33.6134,
      "population": 311000,
      "region": "İç Anadolu"
    },
    {
      "rank": 19,
      "city": "Çorum",
      "latitude": 40.5503,
      "longitude": 34.9553,
        "population": 311000,
        "region": "İç Anadolu"
    },
    {
      "rank": 20,
      "city": "Denizli",
      "latitude": 37.7765,
      "longitude": 29.0864,
      "population": 311000,
      "region": "Ege"
    },
    {
      "rank": 21,
      "city": "Diyarbakır",
      "latitude": 37.9144,
      "longitude": 40.2306,
      "population": 311000,
      "region": "Güneydoğu Anadolu"
    },
    {
      "rank": 22,
      "city": "Edirne",
      "latitude": 41.6700,
      "longitude": 26.5554,
      "population": 311000,
      "region": "Marmara"
    },
    {
      "rank": 23,
      "city": "Elazığ",
      "latitude": 38.6809,
      "longitude": 39.2264,
      "population": 311000,
      "region": "Doğu Anadolu"
    },
    {
      "rank": 24,
      "city": "Erzincan",
      "latitude": 39.7500,
      "longitude": 39.5000,
      "population": 311000,
      "region": "Doğu Anadolu"
    },
    {
      "rank": 25,
      "city": "Erzurum",
      "latitude": 39.9208,
      "longitude": 41.2922,
      "population": 311000,
      "region": "Doğu Anadolu"
    }
  ]